[
    {
        "name": "Asda",
        "title": "Asda",
        "category": "Supermarket",
        "address": "St Pauls Rd",
        "city": "Bournemouth",
        "id": 1001,
        "postcode": "BH8 8DL",
        "coordinates": {
            "longitude": -1.865020,
            "latitude": 50.725830
        },
        "imageName": "asda_ing"
    },
    {
          "name": "Tesco Metro",
          "title": "Tesco Metro",
          "category": "Supermarket",
          "address": "11 Bourne Avenue",
          "city": "Bournemouth",
          "id": 1002,
          "postcode": "BH2 6DT",
          "coordinates": {
              "longitude": -1.880820,
              "latitude": 50.721310
          },
          "imageName": "tesco_img"
      },
 
 {
         "name": "Wilko",
         "title": "Wilko",
         "category": "Hardware",
         "address": "Dalkeith Ln",
         "city": "Bournemouth",
         "id": 1003,
         "postcode": "BH1 1EN",
         "coordinates": {
             "longitude": -1.875809,
             "latitude": 50.721802
         },
         "imageName": "wilko_img"
     },
 
 {
         "name": "Primark",
         "title": "Primark",
         "category": "Clothing",
         "address": "48-54 Commercial Road",
         "city": "Bournemouth",
         "id": 1004,
         "postcode": "BH2 5LR",
         "coordinates": {
             "longitude": -1.882035,
             "latitude": 50.720478
         },
         "imageName": "primark_img"
     },
 
 {
         "name": "Boots",
         "title": "Boots",
         "category": "Health and beauty",
         "address": "18-20 Commercial Road",
         "city": "Bournemouth",
         "id": 1005,
         "postcode": "BH2 5NL",
         "coordinates": {
             "longitude": -1.880781,
             "latitude": 50.720483
         },
         "imageName": "boots_img"
     },
 
 {
         "name": "Sixty Million Postcards",
         "title": "Sixty Million Postcards",
         "category": "Pub",
         "address": "19-21 Exeter Road",
         "city": "Bournemouth",
         "id": 1002,
         "postcode": "BH2 5AF",
         "coordinates": {
             "longitude":  -1.879526,
             "latitude": 50.721310
         },
         "imageName": "sixmp"
     },
 
 {   "name": "ODEON",
     "title": "ODEON",
     "category": "Movie theatre",
     "address": "Exeter Cres",
     "city": "Bournemouth",
     "id": 1002,
     "postcode": "BH2 5DD",
     "coordinates": {
            "longitude": -1.878968,
            "latitude": 50.718921
        },
     "imageName": "odeon_img"
        }
]
